{
	{
  "Transmilenio": [
    {
      "Nombre_Troncal": "Caracas Sur",
      "Cantidad_Estaciones": 13,
      "Numero_Troncal": 1,
      "Estaciones": [
        {
          "nombre": "Hospital",
          "latitud": 4.594895,
          "longitud": -74.086324,
          "tipo": "normal",
          "alimentadores": false,
          "UPZ": 2,
          "numero": 13
        },
        {
          "nombre": "Hortúa",
          "latitud": 4.590761,
          "longitud": -74.090271,
          "tipo": "normal",
          "alimentadores": false,
          "UPZ": 2,
          "numero": 12
        },
        {
          "nombre": "Nariño",
          "latitud": 4.586337,
          "longitud": -74.093883,
          "tipo": "normal",
          "alimentadores": false,
          "UPZ": 2,
          "numero": 11
        },
        {
          "nombre": "Fucha",
          "latitud": 4.582775,
          "longitud": -74.099679,
          "tipo": "normal",
          "alimentadores": false,
          "UPZ": 2,
          "numero": 10
        },
        {
          "nombre": "Restrepo",
          "latitud": 4.581823,
          "longitud": -74.101430,
          "tipo": "normal",
          "alimentadores": false,
          "UPZ": 2,
          "numero": 9
        },
        {
          "nombre": "Olaya",
          "latitud": 4.578889,
          "longitud": -74.107356,
          "tipo": "normal",
          "alimentadores": false,
          "UPZ": 2,
          "numero": 8
        },
        {
          "nombre": "Quiroga",
          "latitud": 4.576774,
          "longitud": -74.114292,
          "tipo": "normal",
          "alimentadores": false,
          "UPZ": 2,
          "numero": 7
        },
        {
          "nombre": "Calle 40 Sur",
          "latitud": 4.575728,
          "longitud": -74.120113,
          "tipo": "normal",
          "alimentadores": false,
          "UPZ": 2,
          "numero": 6
        },
        {
          "nombre": "Santa Lucía",
          "latitud": 4.570922,
          "longitud": -74.124681,
          "tipo": "normal",
          "alimentadores": false,
          "UPZ": 2,
          "numero": 5
        },
        {
          "nombre": "Socorro",
          "latitud": 4.564669,
          "longitud": -74.125592,
          "tipo": "normal",
          "alimentadores": false,
          "UPZ": 2,
          "numero": 4
        },
        {
          "nombre": "Consuelo",
          "latitud": 4.560125,
          "longitud": -74.123823,
          "tipo": "normal",
          "alimentadores": false,
          "UPZ": 2,
          "numero": 3
        },
        {
          "nombre": "Molinos",
          "latitud": 4.556984,
          "longitud": -74.121765,
          "tipo": "normal",
          "alimentadores": false,
          "UPZ": 2,
          "numero": 2
        },
        {
          "nombre": "Portal Usme",
          "latitud": 4.531899,
          "longitud": -74.119252,
          "tipo": "portal",
          "alimentadores": false,
          "UPZ": 2,
          "numero": 1
        }
      ]
    },
    {
      "Nombre_Troncal": "Caracas",
      "Cantidad_Estaciones": 14,
      "Numero_Troncal": 2,
      "Estaciones": [
        {
          "nombre": "Calle 76",
          "latitud": 4.662923,
          "longitud": -74.061296,
          "tipo": "normal",
          "alimentadores": false,
          "UPZ": 2,
          "numero": 14
        },
        {
          "nombre": "Calle 72",
          "latitud": 4.657956,
          "longitud": -74.062110,
          "tipo": "normal",
          "alimentadores": false,
          "UPZ": 2,
          "numero": 13
        },
        {
          "nombre": "Flores",
          "latitud": 4.655037,
          "longitud": -74.062980,
          "tipo": "normal",
          "alimentadores": false,
          "UPZ": 2,
          "numero": 12
        },
        {
          "nombre": "Calle 63",
          "latitud": 4.648981,
          "longitud": -74.064770,
          "tipo": "normal",
          "alimentadores": false,
          "UPZ": 2,
          "numero": 11
        },
        {
          "nombre": "Calle 57",
          "latitud": 4.643050,
          "longitud": -74.065867,
          "tipo": "normal",
          "alimentadores": false,
          "UPZ": 2,
          "numero": 10
        },
        {
          "nombre": "Marly",
          "latitud": 4.637428,
          "longitud": -74.066848,
          "tipo": "normal",
          "alimentadores": false,
          "UPZ": 2,
          "numero": 9
        },
        {
          "nombre": "Calle 45",
          "latitud": 4.631428,
          "longitud": -74.067890,
          "tipo": "normal",
          "alimentadores": false,
          "UPZ": 2,
          "numero": 8
        },
        {
          "nombre": "Avenida 39",
          "latitud": 4.627323,
          "longitud": -74.068618,
          "tipo": "normal",
          "alimentadores": false,
          "UPZ": 2,
          "numero": 7
        },
        {
          "nombre": "Calle 34",
          "latitud": 4.621587,
          "longitud": -74.069731,
          "tipo": "normal",
          "alimentadores": false,
          "UPZ": 2,
          "numero": 6
        },
        {
          "nombre": "Calle 26",
          "latitud": 4.616089,
          "longitud": -74.072450,
          "tipo": "normal",
          "alimentadores": false,
          "UPZ": 2,
          "numero": 5
        },
        {
          "nombre": "Calle 22",
          "latitud": 4.611707,
          "longitud": -74.074687,
          "tipo": "normal",
          "alimentadores": false,
          "UPZ": 2,
          "numero": 4
        },
        {
          "nombre": "Calle 19",
          "latitud": 4.607880,
          "longitud": -74.076867,
          "tipo": "normal",
          "alimentadores": false,
          "UPZ": 2,
          "numero": 3
        },
        {
          "nombre": "Avenida Jiménez",
          "latitud": 4.602882,
          "longitud": -74.080419,
          "tipo": "Intercambiador",
          "alimentadores": false,
          "UPZ": 2,
          "numero": 2
        },
        {
          "nombre": "Tercer Milenio",
          "latitud": 4.598284,
          "longitud": -74.083735,
          "tipo": "normal",
          "alimentadores": false,
          "UPZ": 2,
          "numero": 1
        }
      ]
    },
    {
      "Nombre_Troncal": "Autopista Norte",
      "Cantidad_Estaciones": 17,
      "Numero_Troncal": 3,
      "Estaciones": [
        {
          "nombre": "Terminal",
          "latitud": 4.768721,
          "longitud": -74.043443,
          "tipo": "normal",
          "alimentadores": true,
          "UPZ": 2,
          "numero": 1
        },
        {
          "nombre": "Calle 187",
          "latitud": 4.763205,
          "longitud": -74.044631,
          "tipo": "normal",
          "alimentadores": false,
          "UPZ": 2,
          "numero": 2
        },
        {
          "nombre": "Portal Norte",
          "latitud": 4.754067,
          "longitud": -74.046069,
          "tipo": "portal",
          "alimentadores": true,
          "UPZ": 2,
          "numero": 3
        },
        {
          "nombre": "Toberin",
          "latitud": 4.748111,
          "longitud": -74.046955,
          "tipo": "normal",
          "alimentadores": false,
          "UPZ": 2,
          "numero": 4
        },
        {
          "nombre": "Calle 161",
          "latitud": 4.743126,
          "longitud": -74.047785,
          "tipo": "normal",
          "alimentadores": false,
          "UPZ": 2,
          "numero": 5
        },
        {
          "nombre": "Mazuem",
          "latitud": 4.736314,
          "longitud": -74.048932,
          "tipo": "normal",
          "alimentadores": false,
          "UPZ": 2,
          "numero": 6
        },
        {
          "nombre": "Calle 146",
          "latitud": 4.732914,
          "longitud": -74.049501,
          "tipo": "normal",
          "alimentadores": false,
          "UPZ": 2,
          "numero": 7
        },
        {
          "nombre": "Calle 142",
          "latitud": 4.728020,
          "longitud": -74.050331,
          "tipo": "normal",
          "alimentadores": false,
          "UPZ": 2,
          "numero": 1
        },
        {
          "nombre": "Alcala",
          "latitud": 4.720692,
          "longitud": -74.051554,
          "tipo": "normal",
          "alimentadores": false,
          "UPZ": 2,
          "numero": 1
        },
        {
          "nombre": "Prado",
          "latitud": 4.714721,
          "longitud": -74.052562,
          "tipo": "normal",
          "alimentadores": false,
          "UPZ": 2,
          "numero": 1
        },
        {
          "nombre": "Calle 127",
          "latitud": 4.704527,
          "longitud": -74.054279,
          "tipo": "normal",
          "alimentadores": false,
          "UPZ": 2,
          "numero": 1
        },
        {
          "nombre": "Pepe Sierra",
          "latitud": 4.698035,
          "longitud": -74.055338,
          "tipo": "normal",
          "alimentadores": false,
          "UPZ": 2,
          "numero": 1
        },
        {
          "nombre": "Calle 106",
          "latitud": 4.694089,
          "longitud": -74.056012,
          "tipo": "normal",
          "alimentadores": false,
          "UPZ": 2,
          "numero": 1
        },
        {
          "nombre": "Calle 100",
          "latitud": 4.685544,
          "longitud": -74.057295,
          "tipo": "normal",
          "alimentadores": false,
          "UPZ": 2,
          "numero": 1
        },
        {
          "nombre": "Virrey",
          "latitud": 4.676210,
          "longitud": -74.059025,
          "tipo": "normal",
          "alimentadores": false,
          "UPZ": 2,
          "numero": 1
        },
        {
          "nombre": "Calle 85",
          "latitud": 4.673505,
          "longitud": -74.059448,
          "tipo": "normal",
          "alimentadores": false,
          "UPZ": 2,
          "numero": 1
        },
        {
          "nombre": "Heroes",
          "latitud": 4.668372,
          "longitud": -74.060301,
          "tipo": "normal",
          "alimentadores": false,
          "UPZ": 2,
          "numero": 1
        }
      ]
    },
    {
      "Nombre_Troncal": "Avenida Suba",
      "Cantidad_Estaciones": 14,
      "Numero_Troncal": 4,
      "Estaciones": [
        {
          "nombre": "Portal Suba",
          "latitud": 4.746958,
          "longitud": -74.094657,
          "tipo": "portal",
          "alimentadores": true,
          "UPZ": 2,
          "numero": 14
        },
        {
          "nombre": "La campiña",
          "latitud": 4.742804,
          "longitud": -74.091366,
          "tipo": "normal",
          "alimentadores": false,
          "UPZ": 2,
          "numero": 14
        },
        {
          "nombre": "Suba - TV 91",
          "latitud": 4.738918,
          "longitud": -74.086967,
          "tipo": "normal",
          "alimentadores": false,
          "UPZ": 2,
          "numero": 14
        },
        {
          "nombre": "21 Angeles",
          "latitud": 4.735464,
          "longitud": -74.080981,
          "tipo": "normal",
          "alimentadores": false,
          "UPZ": 2,
          "numero": 14
        },
        {
          "nombre": "Gratamira",
          "latitud": 4.727490,
          "longitud": -74.074731,
          "tipo": "normal",
          "alimentadores": false,
          "UPZ": 2,
          "numero": 14
        },
        {
          "nombre": "Suba AV Boyaca",
          "latitud": 4.721163,
          "longitud": -74.074801,
          "tipo": "normal",
          "alimentadores": false,
          "UPZ": 2,
          "numero": 14
        },
        {
          "nombre": "Niza - Calle 127",
          "latitud": 4.712256,
          "longitud": -74.072365,
          "tipo": "normal",
          "alimentadores": false,
          "UPZ": 2,
          "numero": 14
        },
        {
          "nombre": "Humedal Cordoba",
          "latitud": 4.706937,
          "longitud": -74.071250,
          "tipo": "normal",
          "alimentadores": false,
          "UPZ": 2,
          "numero": 14
        },
        {
          "nombre": "Av Suba CL 116",
          "latitud": 4.699460,
          "longitud": -74.069965,
          "tipo": "normal",
          "alimentadores": false,
          "UPZ": 2,
          "numero": 14
        },
        {
          "nombre": "Puentelargo",
          "latitud": 4.693386,
          "longitud": -74.067226,
          "tipo": "normal",
          "alimentadores": false,
          "UPZ": 2,
          "numero": 14
        },
        {
          "nombre": "Suba CL 100",
          "latitud": 4.690612,
          "longitud": -74.065711,
          "tipo": "normal",
          "alimentadores": false,
          "UPZ": 2,
          "numero": 14
        },
        {
          "nombre": "Suba CL 95",
          "latitud": 4.684610,
          "longitud": -74.063195,
          "tipo": "normal",
          "alimentadores": false,
          "UPZ": 2,
          "numero": 14
        },
        {
          "nombre": "Rionegro",
          "latitud": 4.680421,
          "longitud": -74.064783,
          "tipo": "normal",
          "alimentadores": false,
          "UPZ": 2,
          "numero": 14
        },
        {
          "nombre": "San Martin",
          "latitud": 4.676489,
          "longitud": -74.067124,
          "tipo": "normal",
          "alimentadores": false,
          "UPZ": 2,
          "numero": 14
        }
      ]
    },
    {
      "Nombre_Troncal": "Calle 80",
      "Cantidad_Estaciones": 13,
      "Numero_Troncal": 5,
      "Estaciones": [
        {
          "nombre": "Portal 80",
          "latitud": 4.709528,
          "longitud": -74.110592,
          "tipo": "portal",
          "alimentadores": true,
          "UPZ": 2,
          "numero": 14
        },
        {
          "nombre": "Quirigua",
          "latitud": 4.706784,
          "longitud": -74.108896,
          "tipo": "normal",
          "alimentadores": false,
          "UPZ": 2,
          "numero": 14
        },
        {
          "nombre": "Carrera 90",
          "latitud": 4.704645,
          "longitud": -74.104622,
          "tipo": "normal",
          "alimentadores": false,
          "UPZ": 2,
          "numero": 14
        },
        {
          "nombre": "Avenida Cali",
          "latitud": 4.702378,
          "longitud": -74.100176,
          "tipo": "normal",
          "alimentadores": false,
          "UPZ": 2,
          "numero": 14
        },
        {
          "nombre": "Granja - KRR 77",
          "latitud": 4.699663,
          "longitud": -74.096806,
          "tipo": "normal",
          "alimentadores": true,
          "UPZ": 2,
          "numero": 14
        },
        {
          "nombre": "Minuto de Dios",
          "latitud": 4.696639,
          "longitud": -74.091555,
          "tipo": "normal",
          "alimentadores": false,
          "UPZ": 2,
          "numero": 14
        },
        {
          "nombre": "Boyaca",
          "latitud": 4.693915,
          "longitud": -74.087152,
          "tipo": "normal",
          "alimentadores": false,
          "UPZ": 2,
          "numero": 14
        },
        {
          "nombre": "Ferias",
          "latitud": 4.690912,
          "longitud": -74.084628,
          "tipo": "normal",
          "alimentadores": false,
          "UPZ": 2,
          "numero": 14
        },
        {
          "nombre": "Avenida 68",
          "latitud": 4.685775,
          "longitud": -74.080554,
          "tipo": "normal",
          "alimentadores": false,
          "UPZ": 2,
          "numero": 14
        },
        {
          "nombre": "Carrera 53",
          "latitud": 4.681741,
          "longitud": -74.077366,
          "tipo": "normal",
          "alimentadores": false,
          "UPZ": 2,
          "numero": 14
        },
        {
          "nombre": "Carrera 47",
          "latitud": 4.677975,
          "longitud": -74.073644,
          "tipo": "normal",
          "alimentadores": false,
          "UPZ": 2,
          "numero": 14
        },
        {
          "nombre": "Escuela militar",
          "latitud": 4.675746,
          "longitud": -74.070158,
          "tipo": "normal",
          "alimentadores": false,
          "UPZ": 2,
          "numero": 14
        },
        {
          "nombre": "Polo",
          "latitud": 4.670746,
          "longitud": -74.064844,
          "tipo": "normal",
          "alimentadores": false,
          "UPZ": 2,
          "numero": 14
        }
      ]
    },
    {
      "Nombre_Troncal": "NQS Central",
      "Cantidad_Estaciones": 13,
      "Numero_Troncal": 6,
      "Estaciones": [
        {
          "nombre": "Castellana",
          "latitud": 4.676080,
          "longitud": -74.063526,
          "tipo": "normal",
          "alimentadores": false,
          "UPZ": 2,
          "numero": 14
        },
        {
          "nombre": "NQS Calle 75",
          "latitud": 4.670055,
          "longitud": -74.071353,
          "tipo": "normal",
          "alimentadores": false,
          "UPZ": 2,
          "numero": 14
        },
        {
          "nombre": "Av Chile",
          "latitud": 4.666450,
          "longitud": -74.074451,
          "tipo": "normal",
          "alimentadores": false,
          "UPZ": 2,
          "numero": 14
        },
        {
          "nombre": "Simon Bolivar",
          "latitud": 4.657580,
          "longitud": -74.077627,
          "tipo": "normal",
          "alimentadores": false,
          "UPZ": 2,
          "numero": 14
        },
        {
          "nombre": "Movistar Arena",
          "latitud": 4.650254,
          "longitud": -74.078346,
          "tipo": "normal",
          "alimentadores": false,
          "UPZ": 2,
          "numero": 14
        },
        {
          "nombre": "Campin -UAN",
          "latitud": 4.645739,
          "longitud": -74.078685,
          "tipo": "normal",
          "alimentadores": false,
          "UPZ": 2,
          "numero": 14
        },
        {
          "nombre": "U. Nacional",
          "latitud": 4.637007,
          "longitud": -74.079388,
          "tipo": "normal",
          "alimentadores": false,
          "UPZ": 2,
          "numero": 14
        },
        {
          "nombre": "A. El Dorado",
          "latitud": 4.630665,
          "longitud": -74.079903,
          "tipo": "normal",
          "alimentadores": false,
          "UPZ": 2,
          "numero": 14
        },
        {
          "nombre": "CAD",
          "latitud": 4.623655,
          "longitud": -74.084050,
          "tipo": "normal",
          "alimentadores": false,
          "UPZ": 2,
          "numero": 14
        },
        {
          "nombre": "Paloquemao",
          "latitud": 4.616672,
          "longitud": -74.089736,
          "tipo": "normal",
          "alimentadores": false,
          "UPZ": 2,
          "numero": 14
        },
        {
          "nombre": "Guatoque - Veraguas",
          "latitud": 4.604388,
          "longitud": -74.095232,
          "tipo": "normal",
          "alimentadores": false,
          "UPZ": 2,
          "numero": 14
        },
        {
          "nombre": "Tygua - San jose",
          "latitud": 4.599689,
          "longitud": -74.088559,
          "tipo": "normal",
          "alimentadores": false,
          "UPZ": 2,
          "numero": 14
        }
      ]
    },
    {
      "Nombre_Troncal": "Avenida Las Américas",
      "Cantidad_Estaciones": 17,
      "Numero_Troncal": 7,
      "Estaciones": [
        {
          "nombre": "De la Sabana",
          "latitud": 4.605604,
          "longitud": -74.082134,
          "tipo": "normal",
          "alimentadores": false,
          "UPZ": 2,
          "numero": 14
        },
        {
          "nombre": "San Facon - KRR 22",
          "latitud": 4.609695,
          "longitud": -74.086771,
          "tipo": "normal",
          "alimentadores": false,
          "UPZ": 2,
          "numero": 14
        },
        {
          "nombre": "Ricaurte",
          "latitud": 4.613261,
          "longitud": -74.090769,
          "tipo": "intercambiador",
          "alimentadores": false,
          "UPZ": 2,
          "numero": 14
        },
        {
          "nombre": "CDS - Carrera 32",
          "latitud": 4.615998,
          "longitud": -74.093831,
          "tipo": "normal",
          "alimentadores": false,
          "UPZ": 2,
          "numero": 14
        },
        {
          "nombre": "Zona Industrial",
          "latitud": 4.620392,
          "longitud": -74.098790,
          "tipo": "normal",
          "alimentadores": false,
          "UPZ": 2,
          "numero": 14
        },
        {
          "nombre": "Carrera 43",
          "latitud": 4.622774,
          "longitud": -74.101444,
          "tipo": "normal",
          "alimentadores": false,
          "UPZ": 2,
          "numero": 14
        },
        {
          "nombre": "Puente Aranda",
          "latitud": 4.625716,
          "longitud": -74.104734,
          "tipo": "normal",
          "alimentadores": false,
          "UPZ": 2,
          "numero": 14
        },
        {
          "nombre": "Distrito Grafiti",
          "latitud": 4.627843,
          "longitud": -74.111626,
          "tipo": "normal",
          "alimentadores": false,
          "UPZ": 2,
          "numero": 14
        },
        {
          "nombre": "Pradera",
          "latitud": 4.628450,
          "longitud": -74.118576,
          "tipo": "normal",
          "alimentadores": false,
          "UPZ": 2,
          "numero": 14
        },
        {
          "nombre": "Marsella",
          "latitud": 4.629663,
          "longitud": -74.129941,
          "tipo": "normal",
          "alimentadores": false,
          "UPZ": 2,
          "numero": 14
        },
        {
          "nombre": "AV Americas AV Boyaca",
          "latitud": 4.630090,
          "longitud": -74.133820,
          "tipo": "normal",
          "alimentadores": false,
          "UPZ": 2,
          "numero": 14
        },
        {
          "nombre": "Mandalay",
          "latitud": 4.630708,
          "longitud": -74.141360,
          "tipo": "normal",
          "alimentadores": false,
          "UPZ": 2,
          "numero": 14
        },
        {
          "nombre": "Banderas",
          "latitud": 4.631192,
          "longitud": -74.145251,
          "tipo": "normal",
          "alimentadores": true,
          "UPZ": 2,
          "numero": 14
        },
        {
          "nombre": "Transversal 86",
          "latitud": 4.634138,
          "longitud": -74.152083,
          "tipo": "normal",
          "alimentadores": false,
          "UPZ": 2,
          "numero": 14
        },
        {
          "nombre": "Biblioteca el Tintal",
          "latitud": 4.639012,
          "longitud": -74.158365,
          "tipo": "normal",
          "alimentadores": false,
          "UPZ": 2,
          "numero": 14
        },
        {
          "nombre": "Patio Bonito",
          "latitud": 4.633853,
          "longitud": -74.163741,
          "tipo": "normal",
          "alimentadores": false,
          "UPZ": 2,
          "numero": 14
        },
        {
          "nombre": "Portal Americas",
          "latitud": 4.629401,
          "longitud": -74.173628,
          "tipo": "normal",
          "alimentadores": false,
          "UPZ": 2,
          "numero": 14
        }
      ]
    },
    {
      "Nombre_Troncal": "NQS Sur",
      "Cantidad_Estaciones": 17,
      "Numero_Troncal": 8,
      "Estaciones": [
        {
          "nombre": "Comuneros",
          "latitud": 4.604368,
          "longitud": -74.099726,
          "tipo": "normal",
          "alimentadores": false,
          "UPZ": 2,
          "numero": 14
        },
        {
          "nombre": "Santa Isabel",
          "latitud": 4.601481,
          "longitud": -74.102749,
          "tipo": "normal",
          "alimentadores": false,
          "UPZ": 2,
          "numero": 14
        },
        {
          "nombre": "Sena",
          "latitud": 4.597261,
          "longitud": -74.110659,
          "tipo": "normal",
          "alimentadores": false,
          "UPZ": 2,
          "numero": 14
        },
        {
          "nombre": "NQS CLL 30 Sur",
          "latitud": 4.594759,
          "longitud": -74.118008,
          "tipo": "normal",
          "alimentadores": false,
          "UPZ": 2,
          "numero": 14
        },
        {
          "nombre": "NQS CLL 38A Sur",
          "latitud": 4.593750,
          "longitud": -74.123721,
          "tipo": "normal",
          "alimentadores": false,
          "UPZ": 2,
          "numero": 14
        },
        {
          "nombre": "Gral Santander",
          "latitud": 4.593519,
          "longitud": -74.129595,
          "tipo": "normal",
          "alimentadores": true,
          "UPZ": 2,
          "numero": 14
        },
        {
          "nombre": "Alqueria",
          "latitud": 4.594246,
          "longitud": -74.134498,
          "tipo": "normal",
          "alimentadores": false,
          "UPZ": 2,
          "numero": 14
        },
        {
          "nombre": "Venecia",
          "latitud": 4.595568,
          "longitud": -74.142537,
          "tipo": "normal",
          "alimentadores": false,
          "UPZ": 2,
          "numero": 14
        },
        {
          "nombre": "Sevillana",
          "latitud": 4.595068,
          "longitud": -74.147196,
          "tipo": "normal",
          "alimentadores": false,
          "UPZ": 2,
          "numero": 14
        },
        {
          "nombre": "Madelena",
          "latitud": 4.596212,
          "longitud": -74.157308,
          "tipo": "normal",
          "alimentadores": false,
          "UPZ": 2,
          "numero": 14
        },
        {
          "nombre": "Perdomo",
          "latitud": 4.595736,
          "longitud": -74.164703,
          "tipo": "normal",
          "alimentadores": false,
          "UPZ": 2,
          "numero": 14
        },
        {
          "nombre": "Portal Sur",
          "latitud": 4.596846,
          "longitud": -74.169399,
          "tipo": "portal",
          "alimentadores": true,
          "UPZ": 2,
          "numero": 14
        },
        {
          "nombre": "Bosa",
          "latitud": 4.596897,
          "longitud": -74.180938,
          "tipo": "normal",
          "alimentadores": false,
          "UPZ": 2,
          "numero": 14
        },
        {
          "nombre": "Despensa",
          "latitud": 4.594656,
          "longitud": -74.187968,
          "tipo": "normal",
          "alimentadores": false,
          "UPZ": 2,
          "numero": 14
        },
        {
          "nombre": "Leon XVIII",
          "latitud": 4.592301,
          "longitud": -74.192790,
          "tipo": "normal",
          "alimentadores": false,
          "UPZ": 2,
          "numero": 14
        },
        {
          "nombre": "Terreros",
          "latitud": 4.589160,
          "longitud": -74.199163,
          "tipo": "normal",
          "alimentadores": false,
          "UPZ": 2,
          "numero": 14
        },
        {
          "nombre": "San Mateo",
          "latitud": 4.585919,
          "longitud": -74.205512,
          "tipo": "normal",
          "alimentadores": false,
          "UPZ": 2,
          "numero": 14
        }
      ]
    },
    {
      "Nombre_Troncal": "Eje Ambiental",
      "Cantidad_Estaciones": 3,
      "Numero_Troncal": 10,
      "Estaciones": [
        {
          "nombre": "Museo del Oro",
          "latitud": 4.601115,
          "longitud": -74.072939,
          "tipo": "normal",
          "alimentadores": false,
          "UPZ": 2,
          "numero": 14
        },
        {
          "nombre": "Las Aguas",
          "latitud": 4.602585,
          "longitud": -74.068358,
          "tipo": "normal",
          "alimentadores": false,
          "UPZ": 2,
          "numero": 14
        },
        {
          "nombre": "Universidades",
          "latitud": 4.605021,
          "longitud": -74.067103,
          "tipo": "normal",
          "alimentadores": false,
          "UPZ": 2,
          "numero": 14
        }
      ]
    },
    {
      "Nombre_Troncal": "Avenida Eldorado",
      "Cantidad_Estaciones": 13,
      "Numero_Troncal": 11,
      "Estaciones": [
        {
          "nombre": "Centro memoria",
          "latitud": 4.620570,
          "longitud": -74.076442,
          "tipo": "normal",
          "alimentadores": false,
          "UPZ": 2,
          "numero": 14
        },
        {
          "nombre": "Concejo de Bogota",
          "latitud": 4.626296,
          "longitud": -74.080514,
          "tipo": "normal",
          "alimentadores": false,
          "UPZ": 2,
          "numero": 14
        },
        {
          "nombre": "Ciudad Universitaria",
          "latitud": 4.630935,
          "longitud": -74.083604,
          "tipo": "normal",
          "alimentadores": false,
          "UPZ": 2,
          "numero": 14
        },
        {
          "nombre": "Recinto Ferial",
          "latitud": 4.635369,
          "longitud": -74.091793,
          "tipo": "normal",
          "alimentadores": false,
          "UPZ": 2,
          "numero": 14
        },
        {
          "nombre": "Quinta Paredes ",
          "latitud": 4.637218,
          "longitud": -74.092940,
          "tipo": "normal",
          "alimentadores": false,
          "UPZ": 2,
          "numero": 14
        },
        {
          "nombre": "Gobernacion",
          "latitud": 4.642563,
          "longitud": -74.096361,
          "tipo": "normal",
          "alimentadores": false,
          "UPZ": 2,
          "numero": 14
        },
        {
          "nombre": "CAN",
          "latitud": 4.646785,
          "longitud": -74.098976,
          "tipo": "normal",
          "alimentadores": false,
          "UPZ": 2,
          "numero": 14
        },
        {
          "nombre": "Salitre - El Greco",
          "latitud": 4.650884,
          "longitud": -74.101699,
          "tipo": "normal",
          "alimentadores": false,
          "UPZ": 2,
          "numero": 14
        },
        {
          "nombre": "El Tiempo - Maloka",
          "latitud": 4.657550,
          "longitud": -74.105850,
          "tipo": "normal",
          "alimentadores": false,
          "UPZ": 2,
          "numero": 14
        },
        {
          "nombre": "Av Rojas",
          "latitud": 4.662615,
          "longitud": -74.109150,
          "tipo": "normal",
          "alimentadores": false,
          "UPZ": 2,
          "numero": 14
        },
        {
          "nombre": "Normandia",
          "latitud": 4.669339,
          "longitud": -74.113468,
          "tipo": "normal",
          "alimentadores": false,
          "UPZ": 2,
          "numero": 14
        },
        {
          "nombre": "Modelia",
          "latitud": 4.674923,
          "longitud": -74.117049,
          "tipo": "normal",
          "alimentadores": false,
          "UPZ": 2,
          "numero": 14
        },
        {
          "nombre": "Portal El dorado",
          "latitud": 4.681655,
          "longitud": -74.121395,
          "tipo": "nortal",
          "alimentadores": true,
          "UPZ": 2,
          "numero": 14
        }
      ]
    },
    {
      "Nombre_Troncal": "Carrera Decima",
      "Cantidad_Estaciones": 10,
      "Numero_Troncal": 12,
      "Estaciones": [
        {
          "nombre": "San Diego",
          "latitud": 4.611147,
          "longitud": -74.071405,
          "tipo": "normal",
          "alimentadores": false,
          "UPZ": 2,
          "numero": 14
        },
        {
          "nombre": "Las Nieves",
          "latitud": 4.610238,
          "longitud": -74.071833,
          "tipo": "normal",
          "alimentadores": false,
          "UPZ": 2,
          "numero": 14
        },
        {
          "nombre": "San Victorino",
          "latitud": 4.601475,
          "longitud": -74.077095,
          "tipo": "normal",
          "alimentadores": false,
          "UPZ": 2,
          "numero": 14
        },
        {
          "nombre": "Bicentenario",
          "latitud": 4.593772,
          "longitud": -74.081998,
          "tipo": "normal",
          "alimentadores": true,
          "UPZ": 2,
          "numero": 14
        },
        {
          "nombre": "San Bernardo",
          "latitud": 4.590149,
          "longitud": -74.084377,
          "tipo": "normal",
          "alimentadores": false,
          "UPZ": 2,
          "numero": 14
        },
        {
          "nombre": "Policarpa",
          "latitud": 4.586339,
          "longitud": -74.086855,
          "tipo": "normal",
          "alimentadores": false,
          "UPZ": 2,
          "numero": 14
        },
        {
          "nombre": "Ciudad Jardin",
          "latitud": 4.581473,
          "longitud": -74.090415,
          "tipo": "normal",
          "alimentadores": false,
          "UPZ": 2,
          "numero": 14
        },
        {
          "nombre": "Av 1 de Mayo",
          "latitud": 4.577208,
          "longitud": -74.093464,
          "tipo": "normal",
          "alimentadores": false,
          "UPZ": 2,
          "numero": 14
        },
        {
          "nombre": "Country Sur",
          "latitud": 4.571388,
          "longitud": -74.098590,
          "tipo": "normal",
          "alimentadores": false,
          "UPZ": 2,
          "numero": 14
        },
        {
          "nombre": "Portal 20 de Julio",
          "latitud": 4.565385,
          "longitud": -74.098015,
          "tipo": "portal",
          "alimentadores": true,
          "UPZ": 2,
          "numero": 14
        }
      ]
    },
    {
      "Nombre_Troncal": "Kra 7",
      "Cantidad_Estaciones": 1,
      "Numero_Troncal": 13,
      "Estaciones": [
        {
          "nombre": "Museo Nacional",
          "latitud": 4.616147,
          "longitud": -74.068965,
          "tipo": "normal",
          "alimentadores": false,
          "UPZ": 2,
          "numero": 14
        }
      ]
    },
    {
      "Nombre_Troncal": "Caracas Sur (Tunal)",
      "Cantidad_Estaciones": 3,
      "Numero_Troncal": 9,
      "Estaciones": [
        {
          "nombre": "Biblioteca",
          "latitud": 4.570358,
          "longitud": -74.130435,
          "tipo": "normal",
          "alimentadores": false,
          "UPZ": 2,
          "numero": 14
        },
        {
          "nombre": "Parque",
          "latitud": 4.568355,
          "longitud": -74.135471,
          "tipo": "normal",
          "alimentadores": false,
          "UPZ": 2,
          "numero": 14
        },
        {
          "nombre": "Portal Tunal",
          "latitud": 4.568481,
          "longitud": -74.139842,
          "tipo": "portal",
          "alimentadores": false,
          "UPZ": 2,
          "numero": 14
        }
      ]
    }
  ]
}
}